Location,Account,Energy Utilisation (%),Time Utilisation (%),Net Rev Exc. VAT/port/day,Energy Throughput/port/day (kWh),GHG Avoided/port/day (kg),Emission-Free Miles/port/day,Equiv. Trees for 10y/port/day,Sessions/port/day,Charging Time (avg),Dwell Time (avg),Overstay Time (avg),Latitude,Longitude,Postcode,Number of Ports,Charger Type,Venue Type,,,,,,,,,,,,,,,,,,
ACORN,Greene King,0.39%,0.74%,0.493,1.028,0.917,3.394,0.024,0.070,01:52:12,02:30:50,00:38:38,53.46152537,-1.491909759,S35 1SL,4,AC,Pub,,,,,,,,,,,,,,,,,,
ALBION,Greene King,2.44%,2.89%,2.913,6.399,5.708,21.117,0.146,0.169,02:43:01,04:03:57,01:20:56,51.47642053,-2.767382029,BS20 6PZ,4,AC,Pub,,,,,,,,,,,,,,,,,,
ANCHOR,Greene King,1.62%,2.78%,1.974,4.231,3.774,13.963,0.097,0.179,02:28:18,03:42:42,01:14:24,52.14300271,-0.427322555,MK41 0DS,4,AC,Pub,,,,,,,,,,,,,,,,,,
ASHLEY HOTEL,Greene King,1.12%,1.69%,1.390,2.934,2.617,9.681,0.067,0.129,02:08:03,03:08:06,01:00:03,53.31675804,-1.121230795,S81 7JR,4,AC,Pub,,,,,,,,,,,,,,,,,,
ASPEN TREE,Greene King,0.77%,1.01%,0.633,1.910,1.704,6.302,0.044,0.104,01:53:41,02:10:47,00:17:06,51.60101084,0.175692962,RM5 3SP,4,AC,Pub,,,,,,,,,,,,,,,,,,
BADGER BOX,Greene King,1.55%,2.86%,1.912,4.058,3.620,13.392,0.093,0.239,01:56:16,02:50:57,00:54:42,53.079014,-1.243280612,NG17 9BX,6,AC,Pub,,,,,,,,,,,,,,,,,,
BALLOT BOX,Greene King,3.67%,6.56%,4.441,9.619,8.580,31.744,0.220,0.469,02:02:18,03:19:40,01:17:22,51.54898056,-0.330014454,UB6 7QL,6,AC,Pub,,,,,,,,,,,,,,,,,,
BARLEYCORN,Greene King,0.64%,0.98%,0.815,1.667,1.487,5.501,0.038,0.122,01:25:17,01:54:44,00:29:27,50.91360407,-1.302435941,SO30 4FQ,4,AC,Pub,,,,,,,,,,,,,,,,,,
BASSET HOUND,Greene King,4.18%,7.00%,5.027,10.948,9.766,36.129,0.250,0.320,03:21:16,05:11:52,01:50:36,53.35397858,-3.082883365,CH61 1AS,4,AC,Pub,,,,,,,,,,,,,,,,,,
BAY TREE,Greene King,2.75%,5.49%,3.429,7.201,6.423,23.763,0.165,0.390,02:29:14,03:21:18,00:52:04,51.61151154,-1.423478792,OX12 0AN,2,AC,Pub,,,,,,,,,,,,,,,,,,
BEECHDALE,Greene King,0.60%,0.81%,0.568,1.575,1.405,5.199,0.036,0.082,01:56:30,02:20:57,00:24:27,52.96156417,-1.201160365,NG8 3FE,4,AC,Pub,,,,,,,,,,,,,,,,,,
BEECHES,Greene King,1.13%,1.16%,1.380,2.960,2.640,9.766,0.068,0.161,01:29:51,01:42:44,00:12:53,52.53658858,-1.905201892,B42 2AE,4,AC,Pub,,,,,,,,,,,,,,,,,,
BENT BROOK,Greene King,0.57%,1.18%,0.707,1.482,1.322,4.891,0.034,0.089,02:09:36,03:09:55,01:00:19,53.458977,-2.372072233,M41 7NW,6,AC,Pub,,,,,,,,,,,,,,,,,,
BISCOT MILL,Greene King,2.47%,5.37%,2.985,6.474,5.775,21.365,0.148,0.288,02:37:56,04:26:39,01:48:43,51.89583745,-0.433174392,LU3 1AS,6,AC,Pub,,,,,,,,,,,,,,,,,,
BLACK BULL,Greene King,1.03%,1.95%,1.283,2.704,2.412,8.924,0.062,0.165,02:02:20,02:48:10,00:45:50,55.009998,-1.5755158,NE7 7XE,6,AC,Pub,,,,,,,,,,,,,,,,,,
BLACK HORSE,Greene King,2.91%,6.53%,3.639,7.613,6.791,25.122,0.174,0.420,02:46:31,03:41:55,00:55:24,51.82362478,-1.291009794,OX5 2BT,2,AC,Pub,,,,,,,,,,,,,,,,,,
BLUE ANCHOR,Greene King,1.24%,2.27%,1.540,3.255,2.903,10.741,0.074,0.178,02:04:18,03:02:27,00:58:09,53.47900195,-2.934297301,L10 8LH,4,AC,Pub,,,,,,,,,,,,,,,,,,
BOLD FORESTER,Greene King,0.54%,1.13%,0.673,1.426,1.272,4.706,0.033,0.112,01:37:56,02:25:15,00:47:19,53.1410118,-1.209693894,NG18 5NG,6,AC,Pub,,,,,,,,,,,,,,,,,,
BRADMORE ARMS,Greene King,1.90%,3.41%,2.334,4.977,4.439,16.424,0.114,0.234,02:03:54,03:28:04,01:24:10,52.57613034,-2.155919143,WV3 7HX,6,AC,Pub,,,,,,,,,,,,,,,,,,
BRIDGE INN,Greene King,1.11%,2.33%,1.385,2.912,2.598,9.611,0.067,0.143,02:12:51,03:52:01,01:39:10,51.39983087,-2.841309114,BS49 4AU,8,AC,Pub,,,,,,,,,,,,,,,,,,
CAERNARVON,Greene King,3.13%,4.36%,3.752,8.188,7.304,27.022,0.187,0.272,02:47:09,03:48:55,01:01:46,53.38286633,-3.052602367,CH43 2JZ,6,AC,Pub,,,,,,,,,,,,,,,,,,
CATH INN,Greene King,0.67%,0.97%,0.829,1.765,1.574,5.823,0.040,0.125,01:37:53,01:50:39,00:12:46,51.30851089,-2.958244451,BS24 0PZ,6,AC,Pub,,,,,,,,,,,,,,,,,,
CEDARS INN,Greene King,1.07%,2.39%,1.248,2.806,2.503,9.261,0.064,0.116,02:40:45,04:54:35,02:13:50,51.07319133,-4.084830208,EX31 2HE,6,AC,Pub,,,,,,,,,,,,,,,,,,
CHASE GATE,Greene King,0.24%,0.29%,0.312,0.629,0.561,2.076,0.014,0.057,01:10:08,01:12:29,00:02:21,52.67431771,-2.050129463,WS11 1SY,6,AC,Pub,,,,,,,,,,,,,,,,,,
CHATTERLY,Greene King,1.99%,3.00%,2.445,5.199,4.637,17.156,0.119,0.271,01:56:55,02:38:09,00:41:14,53.0694881,-2.205343016,ST6 5GA,6,AC,Pub,,,,,,,,,,,,,,,,,,
CHEQUERS,Greene King,0.27%,0.33%,0.320,0.697,0.621,2.299,0.016,0.035,02:05:25,02:15:19,00:09:54,51.90610734,-0.514371713,LU5 5LB,4,AC,Pub,,,,,,,,,,,,,,,,,,
CHERRY TREE,Greene King,0.56%,0.69%,0.641,1.461,1.304,4.823,0.033,0.114,01:20:47,01:27:01,00:06:14,53.00744073,-2.221882683,ST5 1NZ,6,AC,Pub,,,,,,,,,,,,,,,,,,
CHQD FLAG,Greene King,2.37%,3.49%,2.827,6.219,5.547,20.522,0.142,0.296,02:05:04,02:48:14,00:43:10,52.50725282,-0.704797705,NN17 4DU,4,AC,Pub,,,,,,,,,,,,,,,,,,
CHURCH INN,Greene King,0.26%,0.49%,0.346,0.688,0.614,2.272,0.016,0.069,01:21:18,01:39:54,00:18:36,53.44228517,-2.382709223,M41 9BU,4,AC,Pub,,,,,,,,,,,,,,,,,,
COOPERS BROOK,Greene King,1.96%,5.71%,2.378,5.139,4.584,16.959,0.118,0.254,02:10:04,05:20:46,03:10:42,53.00023066,-1.138326519,NG5 6BH,6,AC,Pub,,,,,,,,,,,,,,,,,,
COTTAGE LOAF,Greene King,1.36%,2.45%,1.699,3.568,3.182,11.774,0.082,0.179,02:07:32,03:15:17,01:07:45,53.35153639,-3.131158467,CH61 0HJ,6,AC,Pub,,,,,,,,,,,,,,,,,,
CRICKETERS,Greene King,0.20%,0.34%,0.209,0.522,0.465,1.722,0.012,0.032,01:31:48,02:29:51,00:58:03,51.33309437,-0.82325785,GU46 6BA,6,AC,Pub,,,,,,,,,,,,,,,,,,
CRICKETERS INN,Greene King,0.27%,0.36%,0.336,0.709,0.633,2.340,0.016,0.053,01:22:26,01:36:32,00:14:06,50.92761692,-1.233393413,SO32 2BH,6,AC,Pub,,,,,,,,,,,,,,,,,,
CUCKOO OAK,Greene King,0.30%,0.49%,0.387,0.780,0.696,2.574,0.018,0.076,01:22:39,01:31:17,00:08:38,52.64039627,-2.438982986,TF7 4JD,6,AC,Pub,,,,,,,,,,,,,,,,,,
CUMBERLAND,Greene King,1.51%,2.65%,1.780,3.950,3.523,13.033,0.090,0.252,01:38:03,02:29:56,00:51:53,53.5317489,-1.109518985,DN2 5AA,6,AC,Pub,,,,,,,,,,,,,,,,,,
DARLEYS,Greene King,3.59%,5.03%,4.431,9.403,8.387,31.028,0.215,0.486,01:50:13,02:27:51,00:37:39,53.73212113,-0.436754226,HU13 9AR,2,AC,Pub,,,,,,,,,,,,,,,,,,
DOG PHEASANT,Greene King,1.42%,1.89%,1.550,3.716,3.314,12.261,0.085,0.140,02:24:02,03:12:17,00:48:15,51.91307021,0.890796755,CO4 5EG,6,AC,Pub,,,,,,,,,,,,,,,,,,
DOG&PARTRIDGE,Greene King,3.84%,9.74%,4.557,10.045,8.960,33.149,0.230,0.348,02:54:12,06:40:08,03:45:56,54.07695019,-2.837938619,LA4 6DE,6,AC,Pub,,,,,,,,,,,,,,,,,,
DRAGON,Greene King,1.35%,2.26%,1.633,3.532,3.150,11.655,0.081,0.189,02:11:00,02:51:03,00:40:03,53.783415,-1.5822295,LS12 4TJ,4,AC,Pub,,,,,,,,,,,,,,,,,,
EARL BEATTY,Greene King,1.79%,2.01%,2.162,4.675,4.170,15.427,0.107,0.167,02:20:09,02:51:19,00:31:10,51.3943042,-0.239285543,KT3 6JF,4,AC,Pub,,,,,,,,,,,,,,,,,,
ELY,Greene King,1.80%,4.16%,2.189,4.711,4.202,15.547,0.108,0.306,01:46:44,03:14:02,01:27:18,51.32392387,-0.821493467,GU17 9LJ,4,AC,Hub+,,,,,,,,,,,,,,,,,,
ELY,Greene King,4.84%,6.56%,52.510,86.454,77.117,285.298,1.977,2.390,00:36:47,00:39:12,00:02:26,51.323875,-0.821507,GU17 9LJ,2,DC150,Hub+,,,,,,,,,,,,,,,,,,
FERNHURST,Greene King,0.56%,0.88%,0.699,1.477,1.317,4.874,0.034,0.117,01:10:55,01:47:53,00:36:59,53.72564186,-2.489138118,BB2 4JP,6,AC,Pub,,,,,,,,,,,,,,,,,,
FIELDHEAD,Greene King,1.51%,2.67%,1.867,3.957,3.530,13.060,0.091,0.266,01:23:13,02:23:09,00:59:56,52.68642386,-1.265576089,LE67 9PR,8,AC,Pub,,,,,,,,,,,,,,,,,,
FLYING HRSE,Greene King,0.92%,1.54%,6.158,9.628,8.588,31.772,0.220,0.327,00:33:49,00:39:31,00:05:42,53.368713,-2.240963,M22 5LB,6,DC150,Hub+,,,,,,,,,,,,,,,,,,
FOUNDRY BELL,Greene King,5.24%,7.33%,6.229,13.732,12.249,45.314,0.314,0.482,02:40:41,03:37:25,00:56:44,51.41213599,-0.808130306,RG40 1RD,4,AC,Pub,,,,,,,,,,,,,,,,,,
FOUR EAGLES,Greene King,0.78%,1.20%,0.973,2.055,1.833,6.781,0.047,0.104,02:08:02,02:44:06,00:36:04,53.09840882,-2.456143624,CW1 3AW,4,AC,Pub,,,,,,,,,,,,,,,,,,
FOX POND,Greene King,1.38%,2.37%,1.648,3.600,3.212,11.881,0.082,0.152,02:19:49,03:42:12,01:22:23,52.579505,-1.0483528,LE2 4RG,6,AC,Pub,,,,,,,,,,,,,,,,,,
FREEMANS ARMS,Greene King,7.54%,16.75%,8.971,19.732,17.601,65.116,0.451,0.573,04:26:57,06:57:15,02:30:17,51.43275712,-0.451496242,TW15 1BS,4,AC,Pub,,,,,,,,,,,,,,,,,,
FURZTON LAKE,Greene King,1.13%,2.53%,1.344,2.953,2.634,9.745,0.068,0.146,02:09:52,04:07:28,01:57:36,52.01659175,-0.768627115,MK4 1GA,8,AC,Pub,,,,,,,,,,,,,,,,,,
GAMSTON,Greene King,1.15%,1.37%,1.430,3.000,2.676,9.901,0.069,0.203,01:19:25,01:36:25,00:17:00,52.92396574,-1.099035207,NG2 6NA,6,AC,Pub,,,,,,,,,,,,,,,,,,
GARDENERS,Greene King,5.69%,12.67%,6.803,14.910,13.300,49.204,0.341,0.554,03:23:23,05:26:41,02:03:18,51.75373018,0.493339137,CM1 6XW,4,AC,Pub,,,,,,,,,,,,,,,,,,
GARDENHALL,Greene King,2.38%,3.71%,2.872,6.232,5.559,20.565,0.143,0.256,02:21:05,03:27:04,01:05:59,55.75574947,-4.231261548,G75 8SP,6,AC,Pub,,,,,,,,,,,,,,,,,,
GATEHOUSE,Greene King,2.12%,2.99%,24.547,37.927,33.831,125.159,0.867,1.168,00:33:59,00:36:33,00:02:34,52.744061,0.402005,PE30 5BB,4,DC150,Hub+,,,,,,,,,,,,,,,,,,
GEMINI,Greene King,0.47%,0.54%,0.570,1.242,1.108,4.099,0.028,0.071,01:42:02,01:47:04,00:05:02,52.6840556,0.935521971,NR19 2EA,4,AC,Pub,,,,,,,,,,,,,,,,,,
GERARD ARMS,Greene King,1.19%,1.76%,1.399,3.120,2.783,10.297,0.071,0.118,02:42:18,03:32:31,00:50:13,53.46205039,-2.759163794,WA10 6SD,6,AC,Pub,,,,,,,,,,,,,,,,,,
GK RIVERSIDE,Greene King,2.74%,7.40%,3.198,7.187,6.410,23.716,0.164,0.272,02:26:22,06:27:58,04:01:35,52.641391,-2.6363166,SY5 6AF,4,AC,Pub,,,,,,,,,,,,,,,,,,
GLASS HORSE,Greene King,0.54%,0.76%,4.306,6.803,6.068,22.450,0.156,0.191,00:37:24,00:40:14,00:02:51,53.442543,-2.728273,WA9 5TQ,4,DC150,Hub+,,,,,,,,,,,,,,,,,,
GRANDSTAND,Greene King,5.03%,6.92%,6.220,13.165,11.743,43.444,0.301,0.693,01:47:33,02:22:41,00:35:08,52.06676092,-2.73426478,HR4 9NH,4,AC,Pub,,,,,,,,,,,,,,,,,,
GRAVESBERIE,Greene King,4.59%,8.84%,5.533,12.022,10.723,39.671,0.275,0.476,02:35:18,04:25:32,01:50:14,53.38249085,-3.108888895,CH49 2PP,6,AC,Pub,,,,,,,,,,,,,,,,,,
GREEN MAN,Greene King,1.51%,2.35%,1.754,3.961,3.533,13.071,0.091,0.122,03:20:34,04:34:10,01:13:37,51.40677912,-0.758510452,RG12 7DL,6,AC,Pub,,,,,,,,,,,,,,,,,,
GREEN POSTS,Greene King,2.07%,3.98%,2.545,5.413,4.829,17.863,0.124,0.186,02:59:20,05:05:49,02:06:29,50.82465635,-1.073606105,PO2 9HJ,2,AC,Pub,,,,,,,,,,,,,,,,,,
GREENE MAN,Greene King,0.47%,0.64%,0.581,1.232,1.099,4.065,0.028,0.088,01:36:13,01:44:50,00:08:37,51.62530183,-0.015044094,E4 6XQ,4,AC,Pub,,,,,,,,,,,,,,,,,,
GREENGAGE,Greene King,0.26%,0.38%,0.340,0.678,0.604,2.236,0.015,0.054,01:26:19,01:41:25,00:15:06,52.25846265,0.701480142,IP32 6DE,4,AC,Pub,,,,,,,,,,,,,,,,,,
HALF MOON,Greene King,0.99%,1.06%,1.064,2.595,2.315,8.564,0.059,0.153,01:28:56,01:39:13,00:10:17,52.34530002,0.522391973,IP28 7HS,4,AC,Pub,,,,,,,,,,,,,,,,,,
HALLEYS COMET,Greene King,0.80%,1.66%,0.985,2.092,1.866,6.904,0.048,0.122,01:41:06,03:13:46,01:32:39,52.05928016,-0.78535858,MK13 7AW,4,AC,Pub,,,,,,,,,,,,,,,,,,
HAMPTON HOTEL,Greene King,0.65%,1.05%,0.793,1.706,1.522,5.630,0.039,0.076,02:06:55,03:17:43,01:10:48,53.35677891,-1.481050049,EH12 6HN,4,AC,Pub,,,,,,,,,,,,,,,,,,
HARDY PICK,Greene King,2.45%,4.24%,10.432,16.169,14.423,53.357,0.370,0.539,00:35:44,00:41:39,00:05:55,53.3568,-1.48101,S8 0XN,4,DC150,Hub+,,,,,,,,,,,,,,,,,,
HARVEST MSE,Greene King,3.63%,6.54%,4.349,9.492,8.467,31.324,0.217,0.347,02:56:10,04:29:19,01:33:09,53.3346243,-3.097067772,CH60 7RQ,6,AC,Pub,,,,,,,,,,,,,,,,,,
HEATHLEY,Greene King,3.29%,8.80%,3.906,8.602,7.673,28.388,0.197,0.305,03:21:26,06:52:16,03:30:50,52.65068711,-1.168813155,LE3 9QE,6,AC,Pub,,,,,,,,,,,,,,,,,,
HICKORYS ADEL,Greene King,5.02%,10.14%,6.064,13.146,11.726,43.381,0.301,0.536,02:29:16,04:30:14,02:00:58,53.8569035,-1.5910609,LS16 7PH,4,AC,Pub,,,,,,,,,,,,,,,,,,
HICKORYS LINC,Greene King,1.18%,1.82%,0.418,0.960,0.857,3.169,0.022,0.080,01:20:27,01:41:37,00:21:10,53.17732131,-0.62338442,LN6 9NH,6,AC,Pub,,,,,,,,,,,,,,,,,,
HICKORYS THRN,Greene King,1.06%,1.90%,1.316,2.767,2.468,9.132,0.063,0.196,01:34:13,02:18:30,00:44:17,53.88962,-3.01481115,FY5 4LH,4,AC,Pub,,,,,,,,,,,,,,,,,,
HIGHLANDS INN,Greene King,1.78%,3.41%,2.273,4.670,4.165,15.410,0.107,0.330,01:53:10,02:27:51,00:34:41,50.96110067,0.099490353,TN22 5SP,4,AC,Pub,,,,,,,,,,,,,,,,,,
HIGHWAYMAN,Greene King,3.93%,10.73%,4.707,10.295,9.183,33.973,0.235,0.376,03:19:44,06:48:03,03:28:20,51.87591562,-0.505686923,LU6 3DX,4,AC,Pub,,,,,,,,,,,,,,,,,,
HONEYCOMBE,Greene King,4.68%,13.40%,5.712,12.260,10.936,40.459,0.280,0.569,02:17:28,05:36:00,03:18:33,51.46389129,-0.385408103,TW4 5AR,4,AC,Pub,,,,,,,,,,,,,,,,,,
JINGLING GATE,Greene King,1.33%,2.27%,1.638,3.473,3.098,11.460,0.079,0.195,01:53:21,02:45:48,00:52:27,55.00487138,-1.708677993,NE5 1LS,6,AC,Pub,,,,,,,,,,,,,,,,,,
JOLLY FARMER,Greene King,1.14%,2.00%,1.402,2.994,2.671,9.881,0.068,0.176,02:08:56,02:42:51,00:33:55,51.07111172,-1.319779687,SO22 6AE,2,AC,Pub,,,,,,,,,,,,,,,,,,
JOLLY FENMAN,Greene King,2.51%,6.23%,2.285,6.573,5.863,21.692,0.150,0.271,02:29:47,05:27:38,02:57:52,51.45137788,0.090481901,DA15 8SW,6,AC,Pub,,,,,,,,,,,,,,,,,,
KEYMASTER,Greene King,2.75%,4.88%,3.391,7.191,6.414,23.729,0.164,0.336,02:21:47,03:27:49,01:06:02,52.58701572,-2.035326757,WV13 2RN,4,AC,Pub,,,,,,,,,,,,,,,,,,
KING'S ARMS,Greene King,2.15%,3.97%,2.694,5.640,5.031,18.611,0.129,0.327,02:37:07,02:53:32,00:16:25,51.36104427,-0.692194496,GU19 5AY,2,AC,Pub,,,,,,,,,,,,,,,,,,
KINGSTOWN,Greene King,1.40%,2.64%,1.698,3.666,3.270,12.098,0.084,0.192,01:53:48,03:16:28,01:22:40,53.741272,-0.218177883,HU12 8DJ,8,AC,Pub,,,,,,,,,,,,,,,,,,
LIGHTHOUSE,Greene King,1.69%,2.88%,2.056,4.420,3.943,14.586,0.101,0.244,02:02:55,02:48:45,00:45:50,53.4270895,-3.0662533,CH45 3LP,4,AC,Pub,,,,,,,,,,,,,,,,,,
LORD NELSON,Greene King,4.45%,8.23%,5.295,11.660,10.401,38.479,0.267,0.429,02:38:55,04:34:22,01:55:26,51.58999362,-1.410728762,OX12 8HL,2,AC,Pub,,,,,,,,,,,,,,,,,,
LRD GASCOIGNE,Greene King,0.23%,0.25%,0.290,0.594,0.529,1.959,0.014,0.052,01:05:31,01:07:39,00:02:08,53.79657688,-1.385600116,LS25 1PZ,4,AC,Pub,,,,,,,,,,,,,,,,,,
LULLINGSTONE,Greene King,4.91%,8.49%,5.799,12.860,11.471,42.438,0.294,0.422,03:34:45,04:47:01,01:12:16,51.39524805,0.177059737,BR8 8BE,6,AC,Pub,,,,,,,,,,,,,,,,,,
MALTSHOVEL,Greene King,1.21%,2.13%,1.330,3.174,2.831,10.475,0.073,0.140,02:02:45,03:37:50,01:35:05,51.12853427,-3.011711532,TA6 7DN,4,AC,Pub,,,,,,,,,,,,,,,,,,
MANOR HOUSE,Greene King,3.84%,6.11%,4.601,10.051,8.965,33.168,0.230,0.408,02:41:43,03:33:52,00:52:08,50.84236518,-1.056468168,PO6 2LJ,4,AC,Pub,,,,,,,,,,,,,,,,,,
MARLOW DONKEY,Greene King,5.45%,12.05%,6.616,14.258,12.718,47.050,0.326,0.539,02:50:55,05:19:27,02:28:32,51.57135246,-0.76925955,SL7 1NW,6,AC,Pub,,,,,,,,,,,,,,,,,,
MARTLETS,Greene King,1.16%,1.50%,1.430,3.042,2.714,10.039,0.070,0.170,01:53:48,02:06:12,00:12:24,50.78591204,-0.696991835,PO21 3AD,6,AC,Pub,,,,,,,,,,,,,,,,,,
MASONS ARMS,Greene King,1.56%,2.04%,1.854,4.073,3.633,13.440,0.093,0.170,02:17:24,02:51:03,00:33:38,53.422137,-1.28170915,S66 1JY,4,AC,Pub,,,,,,,,,,,,,,,,,,
MASTER POTTER,Greene King,0.50%,0.91%,0.632,1.322,1.179,4.361,0.030,0.102,01:51:03,02:07:39,00:16:36,52.97765931,-1.988338103,ST10 1LW,4,AC,Pub,,,,,,,,,,,,,,,,,,
MEADOW COVERT,Greene King,0.92%,1.40%,1.131,2.402,2.143,7.927,0.055,0.108,02:29:34,03:05:18,00:35:44,52.91593386,-1.10900612,NG12 4AT,4,AC,Pub,,,,,,,,,,,,,,,,,,
MERLIN,Greene King,0.94%,1.50%,1.174,2.451,2.186,8.088,0.056,0.135,02:01:16,02:38:00,00:36:44,51.55979259,-1.772074208,SN1 3AF,4,AC,Pub,,,,,,,,,,,,,,,,,,
MERRY MILLER,Greene King,0.24%,0.33%,0.310,0.630,0.562,2.080,0.014,0.047,01:23:58,01:41:17,00:17:19,51.69345488,-1.329111161,OX13 6JW,4,AC,Pub,,,,,,,,,,,,,,,,,,
MILLERS HOTEL,Greene King,1.64%,4.04%,1.936,4.306,3.841,14.209,0.098,0.169,03:01:31,05:40:28,02:38:56,52.60177107,-1.476515517,CV13 6LB,2,AC,Pub,,,,,,,,,,,,,,,,,,
MILTON ARMS,Greene King,1.73%,3.04%,2.087,4.529,4.040,14.946,0.104,0.208,02:13:18,03:28:26,01:15:07,52.22304074,0.136212975,CB4 1XG,6,AC,Pub,,,,,,,,,,,,,,,,,,
MONKHAMS,Greene King,4.46%,6.72%,5.299,11.689,10.427,38.574,0.267,0.416,02:45:40,03:50:41,01:05:01,51.61840835,0.045395975,IG9 6HY,4,AC,Pub,,,,,,,,,,,,,,,,,,
NABB INN,Greene King,0.61%,0.84%,0.736,1.601,1.428,5.283,0.037,0.076,02:08:53,02:37:31,00:28:39,53.03201393,-1.228209758,NG15 6NT,6,AC,Pub,,,,,,,,,,,,,,,,,,
NAGS HEAD,Greene King,2.72%,5.25%,3.341,7.129,6.359,23.524,0.163,0.359,02:06:35,03:28:55,01:22:20,53.50122561,-3.000110541,L23 1TJ,6,AC,Pub,,,,,,,,,,,,,,,,,,
NEW CLOCK INN,Greene King,0.36%,0.47%,0.318,0.681,0.608,2.248,0.016,0.057,01:15:15,01:23:29,00:08:15,50.96447147,-1.306727138,SO50 8AA,4,AC,Pub,,,,,,,,,,,,,,,,,,
NEW INN,Greene King,1.64%,4.07%,1.991,4.300,3.836,14.190,0.098,0.207,02:28:34,04:40:20,02:11:46,51.607745,-2.89564125,NP18 2JN,4,AC,Pub,,,,,,,,,,,,,,,,,,
NEWTON PARK,Greene King,1.41%,2.13%,1.737,3.702,3.303,12.218,0.085,0.167,02:14:49,03:01:48,00:46:59,55.00164,-1.580325442,NE7 7EB,6,AC,Pub,,,,,,,,,,,,,,,,,,
OAK TREE,Greene King,1.64%,2.01%,1.935,4.290,3.826,14.156,0.098,0.246,01:44:15,01:56:44,00:12:29,53.21338701,-2.897025433,CH2 1BF,4,AC,Pub,,,,,,,,,,,,,,,,,,
OAKLANDS,Greene King,3.78%,7.01%,4.553,9.897,8.828,32.661,0.226,0.375,02:48:03,04:27:00,01:38:57,53.20167574,-2.871788669,CH2 3NB,6,AC,Pub,,,,,,,,,,,,,,,,,,
OLD RED LION,Greene King,0.43%,0.65%,0.552,1.138,1.015,3.756,0.026,0.071,01:46:55,02:10:24,00:23:30,51.89169435,-0.176120958,SG2 9XR,4,AC,Pub,,,,,,,,,,,,,,,,,,
ORANGE TREE,Greene King,1.11%,1.68%,1.335,2.911,2.597,9.608,0.067,0.128,02:13:41,03:07:36,00:53:54,51.87629478,0.573807615,CM7 3PH,4,AC,Pub,,,,,,,,,,,,,,,,,,
OXON PRIORY,Greene King,0.97%,2.36%,1.199,2.529,2.256,8.347,0.058,0.110,02:57:15,05:05:25,02:08:10,52.71481421,-2.793133947,SY3 8DL,4,AC,Pub,,,,,,,,,,,,,,,,,,
PAUL PRY,Greene King,1.66%,3.10%,1.980,4.338,3.870,14.317,0.099,0.182,02:46:39,04:02:34,01:15:55,51.58314174,0.600730271,SS6 7AA,6,AC,Pub,,,,,,,,,,,,,,,,,,
PHEASANT,Greene King,0.76%,1.22%,0.938,1.978,1.764,6.526,0.045,0.110,01:55:20,02:38:18,00:42:58,53.74121344,-1.64935331,WF17 9LP,4,AC,Pub,,,,,,,,,,,,,,,,,,
POACHERS,Greene King,5.54%,10.37%,6.632,14.510,12.943,47.882,0.332,0.503,03:06:37,04:54:33,01:47:55,51.35134562,0.523441015,ME5 0NB,4,AC,Pub,,,,,,,,,,,,,,,,,,
PRINCE WALES,Greene King,1.97%,3.20%,2.402,5.146,4.591,16.983,0.118,0.249,02:16:16,03:03:29,00:47:13,51.61060146,-1.243289027,OX11 7NN,2,AC,Pub,,,,,,,,,,,,,,,,,,
RAILWAY INN,Greene King,1.27%,2.81%,1.577,3.335,2.975,11.005,0.076,0.206,02:20:25,03:14:49,00:54:24,50.91576189,-1.25903675,SO30 2DN,4,AC,Pub,,,,,,,,,,,,,,,,,,
RAINDROP,Greene King,1.49%,2.50%,1.772,3.902,3.481,12.878,0.089,0.141,02:42:27,04:13:58,01:31:31,51.66100259,-1.295570199,OX14 5NR,4,AC,Pub,,,,,,,,,,,,,,,,,,
RAVEN HOTEL,Greene King,0.87%,2.06%,0.447,1.043,0.930,3.441,0.024,0.059,01:44:35,03:50:00,02:05:25,51.28062878,-0.962080001,RG27 9HS,6,AC,Pub,,,,,,,,,,,,,,,,,,
RED ARROW,Greene King,0.26%,0.38%,0.320,0.684,0.610,2.257,0.016,0.034,01:48:14,02:37:31,00:49:17,52.45493411,-1.21456398,LE17 4QF,6,AC,Pub,,,,,,,,,,,,,,,,,,
RICHMOND ARMS,Greene King,1.59%,3.84%,1.887,4.156,3.707,13.715,0.095,0.178,04:09:57,05:08:57,00:59:00,50.73657812,-1.865857455,BH8 8UH,2,AC,Pub,,,,,,,,,,,,,,,,,,
ROBIN HOOD CB,Greene King,0.81%,1.48%,1.056,2.122,1.893,7.002,0.049,0.208,01:32:22,01:41:29,00:09:08,52.18394914,0.172619309,CB1 9JL,2,AC,Pub,,,,,,,,,,,,,,,,,,
ROBIN HOOD TN,Greene King,2.85%,5.20%,3.388,7.462,6.656,24.625,0.171,0.269,03:04:15,04:35:38,01:31:24,51.145283,0.2828326,TN2 3TE,2,AC,Pub,,,,,,,,,,,,,,,,,,
ROSE BY NJ,Greene King,0.56%,0.82%,0.662,1.467,1.308,4.841,0.034,0.073,02:10:42,02:38:30,00:27:48,51.43031302,-0.666372689,SL4 2DP,6,AC,Pub,,,,,,,,,,,,,,,,,,
ROSE REVIVED,Greene King,1.33%,2.38%,1.630,3.488,3.111,11.511,0.080,0.257,01:29:23,02:12:23,00:43:00,51.7105623,-1.417315202,OX29 7QD,4,AC,Pub,,,,,,,,,,,,,,,,,,
ROWDEN ARMS,Greene King,1.44%,1.47%,0.067,0.170,0.152,0.562,0.004,0.012,01:20:12,01:22:05,00:01:53,51.45168754,-2.130753114,SN15 2AW,6,AC,Pub,,,,,,,,,,,,,,,,,,
ROYAL GEORGE,Greene King,1.03%,2.80%,0.380,0.972,0.867,3.208,0.022,0.052,02:10:17,04:38:32,02:28:15,51.8282341,-2.109187503,GL4 8JH,4,AC,Pub,,,,,,,,,,,,,,,,,,
ROYAL HORSE,Greene King,1.08%,1.64%,1.327,2.827,2.522,9.330,0.065,0.171,01:36:26,02:16:33,00:40:07,52.269185,-1.536947867,CV34 6GS,6,AC,Pub,,,,,,,,,,,,,,,,,,
ROYAL INN,Greene King,2.83%,4.93%,3.405,7.400,6.601,24.421,0.169,0.366,02:01:57,03:12:21,01:10:24,51.4941805,-2.75763335,BS20 7HG,4,AC,Pub,,,,,,,,,,,,,,,,,,
ROYAL OAK,Greene King,0.80%,0.86%,0.968,2.104,1.877,6.943,0.048,0.114,01:40:23,01:48:17,00:07:55,51.22015648,-1.49894823,SP10 4AJ,6,AC,Pub,,,,,,,,,,,,,,,,,,
ROYAL STAND,Greene King,1.42%,1.45%,1.525,3.721,3.319,12.280,0.085,0.111,02:43:19,03:07:00,00:23:40,51.32723768,-0.754284183,GU15 2PP,6,AC,Pub,,,,,,,,,,,,,,,,,,
SEVEN WELLS,Greene King,0.28%,0.33%,0.347,0.717,0.639,2.366,0.016,0.066,01:08:12,01:10:34,00:02:21,52.89480254,-1.591476686,DE65 6LS,6,AC,Pub,,,,,,,,,,,,,,,,,,
SHERWOOD,Greene King,2.21%,3.83%,2.544,5.780,5.156,19.075,0.132,0.320,01:50:52,02:50:30,00:59:38,53.3488932,-1.400572077,S12 4WG,6,AC,Pub,,,,,,,,,,,,,,,,,,
SIGNAL BOX,Greene King,1.32%,1.86%,1.619,3.466,3.092,11.438,0.079,0.107,03:19:24,04:06:52,00:47:27,52.430744,-1.487271513,CV6 5QS,6,AC,Pub,,,,,,,,,,,,,,,,,,
SILVER FERN,Greene King,1.90%,4.58%,2.290,4.988,4.449,16.460,0.114,0.278,02:51:10,03:55:41,01:04:31,50.85328203,-1.297766238,SO31 9HW,2,AC,Pub,,,,,,,,,,,,,,,,,,
SLOOP INN,Greene King,0.82%,0.97%,1.013,2.136,1.905,7.048,0.049,0.153,01:22:02,01:30:33,00:08:31,50.50016148,-3.578138992,TQ12 5ES,2,AC,Pub,,,,,,,,,,,,,,,,,,
SNOOTY FOX,Greene King,1.73%,2.99%,2.121,4.517,4.029,14.907,0.103,0.233,02:01:45,03:03:42,01:01:56,51.11894365,-0.161886054,RH10 1LX,4,AC,Pub,,,,,,,,,,,,,,,,,,
SPYGLASS KETT,Greene King,0.84%,1.34%,1.061,2.209,1.971,7.291,0.051,0.117,02:07:27,02:43:42,00:36:15,51.35293454,0.580642726,ME8 0PG,6,AC,Pub,,,,,,,,,,,,,,,,,,
ST MARGARETS,Greene King,1.44%,3.69%,1.792,3.771,3.364,12.445,0.086,0.222,01:36:10,03:56:42,02:20:31,52.51924398,-1.491066975,TW1 2LJ,4,AC,Pub,,,,,,,,,,,,,,,,,,
SUNNYSIDE INN,Greene King,2.03%,4.35%,2.489,5.303,4.730,17.500,0.121,0.241,02:36:11,04:17:54,01:41:43,52.79191994,-1.669115641,CV10 8ER,6,AC,Pub,,,,,,,,,,,,,,,,,,
TAP & RAILWAY,Greene King,0.78%,1.00%,0.926,2.050,1.829,6.766,0.047,0.123,01:36:44,01:55:44,00:19:00,50.826735,-1.8896439,BH22 0HX,4,AC,Pub,,,,,,,,,,,,,,,,,,
THE ASCOTT,Greene King,2.55%,3.70%,3.178,6.665,5.945,21.995,0.152,0.365,02:00:26,02:24:37,00:24:11,51.57868364,-0.400296424,HA5 1RJ,4,AC,Pub,,,,,,,,,,,,,,,,,,
THE BELL,Greene King,3.16%,4.92%,3.819,8.278,7.384,27.318,0.189,0.413,02:02:49,02:49:59,00:47:10,52.19044611,-1.728248074,CV37 9HD,4,AC,Pub,,,,,,,,,,,,,,,,,,
THE BELLEMOOR,Greene King,0.93%,1.11%,1.137,2.427,2.164,8.008,0.055,0.142,01:41:18,01:51:36,00:10:17,50.92772241,-1.416388233,SO15 7NU,4,AC,Pub,,,,,,,,,,,,,,,,,,
THE BIG TREE,Greene King,2.65%,5.43%,3.140,6.941,6.191,22.904,0.159,0.299,02:23:45,04:19:39,01:55:54,53.34085022,-1.479278079,S8 0SF,6,AC,Pub,,,,,,,,,,,,,,,,,,
THE BILLESLEY,Greene King,0.77%,1.43%,0.943,2.024,1.806,6.681,0.046,0.110,02:21:45,03:04:57,00:43:12,52.43108871,-1.878245175,B13 0AB,2,AC,Pub,,,,,,,,,,,,,,,,,,
THE BOAT,Greene King,3.03%,5.40%,3.740,7.934,7.078,26.184,0.181,0.394,02:21:17,03:15:45,00:54:28,52.42052704,-1.737120534,B91 2TJ,2,AC,Pub,,,,,,,,,,,,,,,,,,
THE BROADWAY,Greene King,2.73%,4.07%,3.129,7.138,6.367,23.555,0.163,0.272,02:40:02,03:33:24,00:53:22,50.7546388,-1.857144901,BH8 9TG,4,AC,Pub,,,,,,,,,,,,,,,,,,
THE BRUNEL,Greene King,3.64%,10.45%,4.411,9.542,8.511,31.487,0.218,0.367,03:59:13,06:46:13,02:47:00,51.43552439,-2.595103188,BS3 5AZ,4,AC,Pub,,,,,,,,,,,,,,,,,,
THE CHURCHILL,Greene King,3.10%,5.68%,3.369,8.118,7.241,26.789,0.186,0.388,02:01:03,03:29:21,01:28:18,51.54605916,-1.880802502,SN4 8ET,4,AC,Pub,,,,,,,,,,,,,,,,,,
THE COMPASS,Greene King,0.51%,0.76%,0.635,1.330,1.186,4.390,0.030,0.086,01:53:20,02:05:01,00:11:40,56.04057739,-3.366738948,KY11 9NA,6,AC,Pub,,,,,,,,,,,,,,,,,,
THE CRICKETERS,Greene King,5.26%,7.70%,6.078,13.771,12.284,45.446,0.315,0.406,03:32:55,04:30:40,00:57:45,50.83360914,-0.237785391,BN42 4GF,4,AC,Pub,,,,,,,,,,,,,,,,,,
THE DEVON,Greene King,0.51%,0.73%,0.444,1.336,1.191,4.408,0.031,0.093,01:31:34,01:51:53,00:20:19,53.80271,-1.4442663,LS15 8LR,4,AC,Pub,,,,,,,,,,,,,,,,,,
THE DOLPHIN,Greene King,1.10%,2.19%,1.383,2.876,2.565,9.489,0.066,0.179,01:59:38,02:54:35,00:54:58,52.0816602,0.01467616,SG8 6AP,6,AC,Pub,,,,,,,,,,,,,,,,,,
THE GLOSTER,Greene King,8.22%,22.05%,9.786,21.526,19.201,71.035,0.492,0.746,03:23:54,07:02:04,03:38:11,51.28477429,-0.755304284,GU14 7DL,6,AC,Pub,,,,,,,,,,,,,,,,,,
THE GOAT,Greene King,3.36%,5.24%,3.982,8.799,7.849,29.036,0.201,0.286,02:53:33,04:22:00,01:28:26,51.7876579,-0.042447258,SG13 7RT,4,AC,Pub,,,,,,,,,,,,,,,,,,
THE GRANGE,Greene King,3.47%,5.35%,4.151,9.081,8.100,29.966,0.208,0.340,02:43:45,03:44:49,01:01:04,53.39681344,-3.122382076,CH46 6DQ,4,AC,Pub,,,,,,,,,,,,,,,,,,
THE MILL,Greene King,1.27%,2.53%,1.531,3.314,2.956,10.936,0.076,0.163,02:14:01,03:42:12,01:28:11,50.80175252,0.295682957,BN23 8AL,6,AC,Pub,,,,,,,,,,,,,,,,,,
THE NAGS HEAD,Greene King,2.72%,4.48%,3.097,7.134,6.364,23.544,0.163,0.265,02:44:00,04:01:46,01:17:46,51.46256833,0.111544804,DA16 1TR,6,AC,Pub,,,,,,,,,,,,,,,,,,
THE NETHERTON,Greene King,3.29%,4.86%,4.022,8.610,7.680,28.414,0.197,0.382,02:05:43,03:01:38,00:55:54,53.47610607,-2.980476022,L21 5HF,6,AC,Pub,,,,,,,,,,,,,,,,,,
THE OAK TREE,Greene King,0.66%,1.17%,0.774,1.717,1.532,5.667,0.039,0.096,01:42:11,02:54:00,01:11:49,53.13294348,-1.164767316,NG18 4LA,4,AC,Pub,,,,,,,,,,,,,,,,,,
THE PLAINSMAN,Greene King,0.93%,1.29%,1.133,2.424,2.162,7.999,0.055,0.166,01:36:33,01:50:28,00:13:56,52.98396936,-1.123715791,NG3 5JL,4,AC,Pub,,,,,,,,,,,,,,,,,,
THE RED HOUSE,Greene King,2.77%,4.15%,3.014,7.247,6.464,23.914,0.166,0.430,01:48:21,02:17:54,00:29:33,51.64739586,-0.443068774,WD3 3TW,4,AC,Pub,,,,,,,,,,,,,,,,,,
THE ROBIN HOOD,Greene King,0.78%,1.23%,0.933,2.040,1.819,6.731,0.047,0.089,02:23:20,03:17:06,00:53:46,50.95664544,-1.250005967,SO32 2AA,4,AC,Pub,,,,,,,,,,,,,,,,,,
THE ROSEDENE,Greene King,2.02%,3.03%,2.154,5.280,4.710,17.424,0.121,0.223,02:20:08,03:13:53,00:53:46,54.8914021,-1.387506646,SR2 9BT,6,AC,Pub,,,,,,,,,,,,,,,,,,
THE ROYAL OAK,Greene King,1.22%,2.68%,1.446,3.205,2.859,10.576,0.073,0.146,01:41:40,04:21:43,02:40:03,51.33987223,-0.818464766,GU46 7UG,6,AC,Pub,,,,,,,,,,,,,,,,,,
THE SHIP,Greene King,0.87%,1.63%,1.036,2.274,2.029,7.505,0.052,0.074,03:49:17,05:13:01,01:23:44,52.13762033,-0.462468647,MK40 3JB,6,AC,Pub,,,,,,,,,,,,,,,,,,
THE SPORTSMAN,Greene King,1.78%,2.09%,1.960,4.655,4.152,15.360,0.106,0.278,01:31:16,01:47:40,00:16:24,51.42920613,-0.945484995,RG2 7DS,4,AC,Pub,,,,,,,,,,,,,,,,,,
THE SQUIRRELS,Greene King,0.89%,1.38%,1.096,2.322,2.071,7.662,0.053,0.169,01:34:00,01:55:59,00:21:59,52.24311306,-0.944442083,NN5 6JF,4,AC,Pub,,,,,,,,,,,,,,,,,,
THE STAG,Greene King,0.74%,2.30%,0.738,1.602,1.429,5.285,0.037,0.081,01:59:48,05:37:12,03:37:24,50.87303584,-1.574431264,SO43 7BE,4,AC,Pub,,,,,,,,,,,,,,,,,,
THE STAR,Greene King,2.11%,2.94%,2.368,5.515,4.920,18.200,0.126,0.244,02:22:17,02:52:14,00:29:57,51.3716837,0.561217671,ME7 2AA,6,AC,Pub,,,,,,,,,,,,,,,,,,
THE SWAN,Greene King,0.95%,1.89%,1.167,2.491,2.222,8.221,0.057,0.102,02:41:24,04:25:11,01:43:48,52.1442866,-0.528292268,MK43 8LT,6,AC,Pub,,,,,,,,,,,,,,,,,,
THE TESTWOOD,Greene King,1.02%,1.13%,1.227,2.678,2.388,8.836,0.061,0.101,02:27:58,02:40:18,00:12:20,50.92730354,-1.500028233,SO40 3ND,6,AC,Pub,,,,,,,,,,,,,,,,,,
THE THRASHER,Greene King,0.33%,0.32%,0.219,0.873,0.778,2.879,0.020,0.063,01:06:11,01:12:14,00:06:03,52.03127315,1.201795104,IP3 9RZ,4,AC,Pub,,,,,,,,,,,,,,,,,,
THE WALKFORD,Greene King,0.68%,1.15%,0.870,1.780,1.588,5.874,0.041,0.119,01:55:08,02:17:40,00:22:32,50.75005701,-1.69022336,BH23 5QF,4,AC,Pub,,,,,,,,,,,,,,,,,,
THE WARREN,Greene King,1.78%,2.31%,2.026,4.665,4.161,15.393,0.107,0.166,02:50:24,03:17:56,00:27:32,52.40320552,-0.713661326,NN16 8FD,4,AC,Pub,,,,,,,,,,,,,,,,,,
THE WELBY,Greene King,1.17%,1.54%,1.490,3.058,2.728,10.093,0.070,0.204,01:39:01,01:47:28,00:08:27,52.77257591,-0.89390721,LE13 0PX,4,AC,Pub,,,,,,,,,,,,,,,,,,
TREE TOPS,Greene King,1.18%,1.90%,1.309,3.098,2.763,10.222,0.071,0.194,01:42:06,02:20:10,00:38:04,52.98973569,-1.113625673,NG3 5RF,6,AC,Pub,,,,,,,,,,,,,,,,,,
TUDOR ARMS,Greene King,2.57%,4.58%,3.122,6.717,5.991,22.166,0.154,0.292,02:24:41,03:44:19,01:19:38,51.67341668,-0.385066247,WD24 7TQ,4,AC,Pub,,,,,,,,,,,,,,,,,,
TWO CHIMNEYS,Greene King,0.31%,0.41%,0.378,0.816,0.728,2.694,0.019,0.072,01:11:03,01:20:38,00:09:36,51.98777278,-0.247027732,SG6 4JS,6,AC,Pub,,,,,,,,,,,,,,,,,,
UNICORN,Greene King,0.56%,0.76%,0.690,1.456,1.299,4.804,0.033,0.082,01:52:57,02:13:13,00:20:16,52.41562515,-1.577975175,CV5 7LN,4,AC,Pub,,,,,,,,,,,,,,,,,,
VICTORY INN,Greene King,0.14%,0.19%,0.172,0.364,0.325,1.202,0.008,0.036,01:02:00,01:13:18,00:11:18,51.6058648,0.692288573,SS4 3EU,6,AC,Pub,,,,,,,,,,,,,,,,,,
WATERS EDGE,Greene King,1.65%,2.59%,2.064,4.315,3.849,14.239,0.099,0.310,01:36:34,01:59:12,00:22:38,52.94613553,-1.166406953,NG7 1GX,4,AC,Pub,,,,,,,,,,,,,,,,,,
WE ANCHOR,Greene King,1.04%,1.24%,1.282,2.712,2.419,8.951,0.062,0.150,01:44:25,01:58:31,00:14:06,51.46642551,0.085153411,DA16 3RW,6,AC,Pub,,,,,,,,,,,,,,,,,,
WEALDEN HALL,Greene King,0.55%,0.70%,0.708,1.451,1.294,4.788,0.033,0.085,01:43:19,01:57:05,00:13:46,51.2980431,0.442316865,ME20 6DE,4,AC,Pub,,,,,,,,,,,,,,,,,,
WEATHERVANE,Greene King,2.46%,4.51%,2.904,6.431,5.736,21.221,0.147,0.435,01:26:14,02:27:59,01:01:45,52.97116007,-2.087146042,ST3 7WA,6,AC,Pub,,,,,,,,,,,,,,,,,,
WEE WAIF,Greene King,0.90%,2.36%,1.068,2.362,2.107,7.794,0.054,0.132,02:13:12,04:16:29,02:03:17,51.47496837,-0.889793253,RG10 9RJ,4,AC,Pub,,,,,,,,,,,,,,,,,,
WELCOME INN,Greene King,2.81%,6.26%,3.366,7.368,6.573,24.315,0.169,0.308,02:58:38,04:50:21,01:51:43,50.96438367,-1.322138916,SO50 8LP,2,AC,Pub,,,,,,,,,,,,,,,,,,
WELLINGTON,Greene King,1.07%,1.68%,1.304,2.795,2.493,9.222,0.064,0.122,02:30:01,03:16:04,00:46:02,53.35321723,-3.005234518,CH63 7PW,6,AC,Pub,,,,,,,,,,,,,,,,,,
WENTWORTH,Greene King,0.59%,0.85%,0.722,1.540,1.373,5.081,0.035,0.080,01:49:54,02:32:54,00:43:01,52.55773007,-1.3062433,LE9 7SG,6,AC,Pub,,,,,,,,,,,,,,,,,,
WHEATPIECES,Greene King,2.30%,4.74%,2.800,6.015,5.366,19.850,0.138,0.299,02:11:12,03:46:29,01:35:17,51.98579921,-2.14520955,GL20 7RW,4,AC,Pub,,,,,,,,,,,,,,,,,,
WHEATSHEAF,Greene King,0.32%,0.43%,0.381,0.818,0.730,2.699,0.019,0.057,01:36:50,01:43:28,00:06:38,51.36140181,1.06530236,CT5 2LU,6,AC,Pub,,,,,,,,,,,,,,,,,,
WHEELHOUSE,Greene King,1.04%,1.67%,1.282,2.729,2.434,9.006,0.062,0.160,01:53:05,02:28:48,00:35:43,52.95512319,-1.210960844,NG8 2BH,4,AC,Pub,,,,,,,,,,,,,,,,,,
WHITE HART,Greene King,1.45%,2.96%,1.761,3.792,3.383,12.515,0.087,0.133,04:03:58,05:18:55,01:14:57,50.79217847,-1.138908792,PO12 1SE,2,AC,Pub,,,,,,,,,,,,,,,,,,
WHITE HORSE,Greene King,0.76%,1.14%,0.950,1.979,1.765,6.531,0.045,0.108,02:00:36,02:30:38,00:30:02,51.48308642,-0.964335387,RG4 8SD,4,AC,Pub,,,,,,,,,,,,,,,,,,
WHITE-HORSE,Greene King,2.39%,3.11%,2.866,6.271,5.594,20.695,0.143,0.293,01:58:29,02:31:41,00:33:12,51.90670654,-1.146253519,OX26 4UA,4,AC,Pub,,,,,,,,,,,,,,,,,,
WHITTINGTON,Greene King,8.02%,16.03%,9.564,20.995,18.727,69.283,0.480,0.661,03:20:32,05:46:13,02:25:40,51.5859488,-0.3810344,HA5 5JS,4,AC,Pub,,,,,,,,,,,,,,,,,,
WILL CAMDEN,Greene King,0.74%,0.99%,0.693,1.931,1.722,6.371,0.044,0.082,02:10:53,02:53:58,00:43:05,51.46347733,0.132297529,DA7 4EQ,6,AC,Pub,,,,,,,,,,,,,,,,,,
WILL CAMDEN,Greene King,0.88%,0.79%,0.063,0.108,0.096,0.356,0.002,0.004,00:43:58,00:57:00,00:13:02,51.46347,0.13239,DA7 4EQ,2,DC50,Pub,,,,,,,,,,,,,,,,,,
WINNING PST,Greene King,1.62%,2.39%,12.021,18.958,16.911,62.563,0.434,0.511,00:40:57,00:43:38,00:02:41,51.446632,-0.358091,TW2 6LS,4,DC150,Hub+,,,,,,,,,,,,,,,,,,
ATRIUM,Aberdeen,6.77%,12.59%,7.172,17.870,15.940,58.972,0.409,0.757,02:37:21,03:59:31,01:22:10,51.337669,-0.749191,GU15 3GG,10,AC,Retail,,,,,,,,,,,,,,,,,,
BISHOP AUCK,Aberdeen,4.02%,5.85%,37.446,72.438,64.615,239.046,1.657,2.255,00:34:49,00:37:23,00:02:34,54.640072,-1.695476,DL14 9FA,2,DC150,Hub+,,,,,,,,,,,,,,,,,,
BISHOP AUCK,Aberdeen,8.78%,6.65%,26.118,52.692,47.001,173.882,1.205,2.108,00:41:11,00:45:26,00:04:15,54.640099,-1.69542,DL14 9FA,2,DC50,Hub+,,,,,,,,,,,,,,,,,,
BISHOP AUCK,Aberdeen,1.58%,2.23%,1.498,4.165,3.715,13.745,0.095,0.376,01:04:27,01:15:18,00:10:52,54.640163,-1.695292,DL14 9FA,4,AC,Hub+,,,,,,,,,,,,,,,,,,
BROTHER,Aberdeen,2.05%,5.84%,38.458,73.828,65.855,243.633,1.689,2.047,00:37:34,00:41:04,00:03:30,52.599735,-0.265105,PE4 6ZR,8,DC300,Hub+,,,,,,,,,,,,,,,,,,
CHARLTON,Aberdeen,3.27%,5.84%,2.974,6.411,5.719,21.156,0.147,0.633,01:33:59,01:38:32,00:04:33,51.487625,0.027307,SE7 7FA,16,AC,Retail,,,,,,,,,,,,,,,,,,
CROYDON,Aberdeen,21.36%,39.42%,213.175,384.466,342.944,1268.739,8.793,9.064,00:59:54,01:02:38,00:02:43,51.378239,-0.123298,CR0 4YA,8,DC150,Hub+,,,,,,,,,,,,,,,,,,
EASTERN,Aberdeen,10.06%,13.98%,100.512,181.019,161.469,597.362,4.140,4.077,00:46:21,00:48:55,00:02:34,51.582817,0.167331,RM7 7EX,4,DC150,Hub+,,,,,,,,,,,,,,,,,,
EASTERN,Aberdeen,7.16%,17.24%,156.864,257.904,230.050,851.082,5.899,5.029,00:47:26,00:49:44,00:02:18,51.582771,0.167402,RM7 7EX,4,DC300,Hub+,,,,,,,,,,,,,,,,,,
HAGLEY ROAD,Aberdeen,3.33%,4.17%,33.441,59.874,53.407,197.583,1.369,1.453,00:36:41,00:41:05,00:04:24,52.471687,-1.923476,B16 8PE,4,DC150,Hub+,,,,,,,,,,,,,,,,,,
HAGLEY ROAD,Aberdeen,1.80%,1.78%,6.839,10.826,9.657,35.726,0.248,0.279,00:59:27,01:19:49,00:20:21,52.471558,-1.923435,B16 8PE,4,DC50,Hub+,,,,,,,,,,,,,,,,,,
HAGLEY ROAD,Aberdeen,0.77%,1.11%,0.780,2.035,1.816,6.717,0.047,0.041,03:42:50,05:47:15,02:04:25,52.471691,-1.924033,B16 8PE,6,AC,Hub+,,,,,,,,,,,,,,,,,,
PARKWAY,Aberdeen,4.07%,8.90%,4.028,10.735,9.575,35.424,0.246,0.475,02:21:54,04:29:35,02:07:41,51.403557,-1.323241,RG14 1AY,10,AC,Retail,,,,,,,,,,,,,,,,,,
SLOUGH,Aberdeen,17.88%,34.14%,167.847,321.902,287.136,1062.275,7.362,9.523,00:46:31,00:51:58,00:05:27,51.50631,-0.596892,SL1 2NE,4,DC150,Hub+,,,,,,,,,,,,,,,,,,
SLOUGH,Aberdeen,12.90%,34.37%,242.050,464.239,414.101,1531.989,10.618,10.941,00:43:06,00:45:14,00:02:08,51.506237,-0.596942,SL1 2NE,4,DC300,Hub+,,,,,,,,,,,,,,,,,,
SLOUGH,Aberdeen,15.45%,36.54%,17.362,40.797,36.391,134.632,0.933,2.083,02:27:06,04:05:08,01:38:01,51.506207,-0.597253,SL1 2NE,4,AC,Hub+,,,,,,,,,,,,,,,,,,
ST MARKS,Aberdeen,2.78%,3.52%,1.827,7.326,6.535,24.177,0.168,0.402,01:54:53,02:06:01,00:11:08,53.224926,-0.544954,LN5 7EX,6,AC,Retail,,,,,,,,,,,,,,,,,,
THE CHIMES,Aberdeen,4.64%,10.47%,4.842,12.238,10.917,40.387,0.280,0.768,01:57:05,03:16:12,01:19:07,51.545868,-0.475807,UB8 1GA,14,AC,Retail,,,,,,,,,,,,,,,,,,
WATER GARDENS,Aberdeen,8.06%,14.16%,7.038,21.268,18.971,70.183,0.486,1.203,01:56:42,02:49:31,00:52:49,51.76656,0.093622,CM20 1AR,12,AC,Retail,,,,,,,,,,,,,,,,,,
NEWBURY,Aviva,27.03%,42.24%,325.285,486.567,434.018,1605.672,11.129,10.340,00:56:53,00:58:50,00:01:56,51.574665,0.082138,IG2 6QG,2,DC150,Hub+,,,,,,,,,,,,,,,,,,
NEWBURY,Aviva,9.53%,9.07%,21.256,33.444,29.832,110.366,0.765,1.015,01:00:33,01:02:50,00:02:17,51.57468,0.082229,IG2 6QG,4,DC50,Hub+,,,,,,,,,,,,,,,,,,
AYLESBURY,Aviva,2.41%,3.61%,6.130,9.631,8.591,31.782,0.220,0.309,00:31:56,00:37:16,00:05:20,51.819138,-0.810419,HP20 1DG,4,DC150,Hub+,,,,,,,,,,,,,,,,,,
AYLESBURY,Aviva,1.43%,1.17%,1.130,1.907,1.701,6.294,0.044,0.078,00:36:42,00:47:52,00:11:10,51.81921,-0.810541,HP20 1DG,2,DC50,Hub+,,,,,,,,,,,,,,,,,,
ASHFORD,MAG,5.34%,10.33%,7.317,13.988,12.477,46.159,0.320,0.922,02:15:25,02:39:57,00:24:32,51.1339,0.875135,TN24 0SD,10,AC,Retail,,,,,,,,,,,,,,,,,,
BRIDGEND,MAG,4.85%,6.57%,6.681,12.696,11.325,41.897,0.290,0.961,01:28:10,01:37:44,00:09:35,51.53207,-3.577278,CF32 9SU,14,AC,Retail,,,,,,,,,,,,,,,,,,
CHESHIRE OAKS,MAG,14.12%,20.29%,19.207,36.975,32.981,122.016,0.846,2.130,01:58:56,02:16:06,00:17:10,53.266029,-2.880992,CH65 9JJ,12,AC,Retail,,,,,,,,,,,,,,,,,,
EAST MIDS,MAG,3.61%,4.77%,5.040,9.443,8.424,31.163,0.216,0.814,01:15:51,01:23:45,00:07:54,53.107674,-1.311995,DE55 2JW,18,AC,Retail,,,,,,,,,,,,,,,,,,
SWINDON,MAG,1.58%,2.09%,0.789,1.598,1.426,5.275,0.037,0.102,01:39:54,01:52:46,00:12:52,51.564945,-1.796999,SN2 2DY,20,AC,Retail,,,,,,,,,,,,,,,,,,
SWINDON,MAG,3.23%,3.36%,4.299,7.432,6.629,24.525,0.170,0.223,00:55:46,01:23:01,00:27:15,51.565166,-1.796487,SN2 2DY,4,DC50,Retail,,,,,,,,,,,,,,,,,,
WEST MIDS,MAG,11.14%,17.48%,2.941,7.559,6.743,24.946,0.173,0.589,01:25:51,01:49:59,00:24:08,52.688568,-2.014562,WS11 7JZ,10,AC,Retail,,,,,,,,,,,,,,,,,,
YORK,MAG,10.73%,17.05%,14.727,28.099,25.064,92.726,0.643,1.851,01:41:57,02:11:36,00:29:39,53.923706,-1.077843,YO19 4TA,16,AC,Retail,,,,,,,,,,,,,,,,,,
AT EXPRESS,Merlin,10.37%,21.06%,12.055,27.372,24.416,90.329,0.626,0.884,03:43:38,05:42:54,01:59:16,52.990532,-1.887819,ST10 4DB,10,AC,Attraction,,,,,,,,,,,,,,,,,,
AT HOTEL,Merlin,14.91%,48.70%,15.924,39.375,35.123,129.938,0.901,1.251,06:15:23,09:20:49,03:05:26,52.985329,-1.873948,ST10 4DB,6,AC,Hotel,,,,,,,,,,,,,,,,,,
AT SPLASH,Merlin,11.65%,28.54%,12.755,30.759,27.437,101.504,0.704,0.986,03:29:48,06:56:41,03:26:53,52.985535,-1.876515,ST10 4DB,10,AC,Hotel,,,,,,,,,,,,,,,,,,
LEGO HOTEL,Merlin,5.62%,18.37%,6.044,14.844,13.241,48.985,0.340,0.558,02:59:56,07:53:54,04:53:58,51.464897,-0.644012,SL4 4AY,10,AC,Hotel,,,,,,,,,,,,,,,,,,
LEGOLAND,Merlin,7.35%,14.96%,8.576,19.395,17.301,64.005,0.444,0.628,03:32:02,05:42:48,02:10:46,51.464619,-0.655665,SL4 4AY,24,AC,Attraction,,,,,,,,,,,,,,,,,,
SAFARI,Merlin,8.20%,20.90%,7.551,18.682,16.664,61.650,0.427,0.654,03:18:52,06:36:50,03:17:58,51.350372,-0.314324,KT9 2NE,16,AC,Attraction,,,,,,,,,,,,,,,,,,
THORPE HTL,Merlin,8.41%,20.64%,9.023,22.203,19.805,73.268,0.508,0.744,03:27:42,06:39:22,03:11:40,51.404972,-0.510051,KT16 8PN,8,AC,Hotel,,,,,,,,,,,,,,,,,,
THORPE PARK,Merlin,7.65%,16.82%,8.960,20.199,18.018,66.658,0.462,0.696,03:49:48,05:47:53,01:58:06,51.404617,-0.507578,KT16 8PN,8,AC,Attraction,,,,,,,,,,,,,,,,,,
WARWICK CAS,Merlin,2.20%,3.96%,2.501,5.798,5.172,19.133,0.133,0.263,02:34:54,03:37:15,01:02:21,52.280941,-1.585461,CV34 4QU,6,AC,Attraction,,,,,,,,,,,,,,,,,,
WARWICK SFD,Merlin,8.95%,22.62%,11.239,23.623,21.072,77.956,0.540,0.772,03:11:21,07:01:45,03:50:24,52.277119,-1.590491,CV34 6AH,6,AC,Attraction,,,,,,,,,,,,,,,,,,
ANGLESEY,NT,1.80%,2.64%,2.377,4.756,4.242,15.693,0.109,0.266,01:58:04,02:22:36,00:24:33,52.236176,0.24552,CB25 9EJ,12,AC,Heritage,,,,,,,,,,,,,,,,,,
ARLINGTON,NT,3.15%,4.47%,3.611,8.320,7.421,27.455,0.190,0.456,02:04:05,02:21:05,00:17:00,51.149612,-3.986775,EX31 4LP,4,AC,Heritage,,,,,,,,,,,,,,,,,,
ATTINGHAM,NT,3.37%,5.12%,4.438,8.889,7.929,29.335,0.203,0.513,01:57:03,02:23:48,00:26:44,52.685524,-2.671213,SY4 4TP,12,AC,Heritage,,,,,,,,,,,,,,,,,,
BELTON HOUSE,NT,3.33%,4.97%,4.369,8.781,7.833,28.977,0.201,0.462,02:05:58,02:34:57,00:28:58,52.941147,-0.620263,NG32 2LW,12,AC,Heritage,,,,,,,,,,,,,,,,,,
CALKE EXPLORE,NT,2.92%,4.02%,3.547,7.698,6.867,25.404,0.176,0.417,01:57:17,02:18:51,00:21:34,52.80027,-1.471117,DE73 7GZ,6,AC,Heritage,,,,,,,,,,,,,,,,,,
CHARLECOTE,NT,2.08%,3.07%,2.533,5.493,4.900,18.128,0.126,0.308,01:50:54,02:23:20,00:32:26,52.20594,-1.616202,CV35 9ER,16,AC,Heritage,,,,,,,,,,,,,,,,,,
CLAREMONT,NT,1.63%,2.83%,0.946,1.940,1.731,6.403,0.044,0.176,01:29:30,01:44:16,00:14:47,51.356293,-0.380843,KT10 9JG,2,AC,Heritage,,,,,,,,,,,,,,,,,,
CLAREMONT,NT,1.52%,1.52%,2.352,4.118,3.673,13.589,0.094,0.160,00:43:48,01:01:31,00:17:43,51.355938,-0.381807,KT10 9JG,2,DC50,Heritage,,,,,,,,,,,,,,,,,,
CLUMBER PARK,NT,2.24%,3.26%,2.782,5.916,5.277,19.522,0.135,0.334,01:52:37,02:20:41,00:28:04,53.26535,-1.063414,S80 3AZ,12,AC,Heritage,,,,,,,,,,,,,,,,,,
CRAGSIDE,NT,2.72%,5.02%,3.067,7.184,6.408,23.709,0.164,0.454,02:25:41,02:39:21,00:13:40,55.314835,-1.885444,NE65 7PX,12,AC,Heritage,,,,,,,,,,,,,,,,,,
CROOK HALL,NT,1.48%,2.04%,1.229,2.632,2.348,8.687,0.060,0.173,01:39:48,01:54:01,00:14:13,54.781773,-1.575016,DH1 5SZ,4,AC,Heritage,,,,,,,,,,,,,,,,,,
FOUNTAINS,NT,4.53%,6.89%,5.533,11.951,10.660,39.437,0.273,0.580,02:14:54,02:51:13,00:36:20,54.113029,-1.58536,HG4 3DY,12,AC,Heritage,,,,,,,,,,,,,,,,,,
GIBSIDE,NT,1.89%,4.34%,1.683,4.984,4.445,16.446,0.114,0.284,02:50:58,03:40:03,00:49:05,54.919342,-1.736035,NE16 6BG,6,AC,Heritage,,,,,,,,,,,,,,,,,,
HATCHLANDS,NT,1.64%,2.61%,0.656,1.358,1.212,4.483,0.031,0.089,01:44:45,02:12:05,00:27:21,51.255684,-0.473691,GU4 7RT,6,AC,Heritage,,,,,,,,,,,,,,,,,,
HEELIS,NT,1.07%,3.42%,0.959,2.835,2.529,9.355,0.065,0.118,03:38:53,06:56:57,03:18:04,51.56427,-1.797067,SN2 2NA,14,AC,Heritage,,,,,,,,,,,,,,,,,,
IGHTHAM MOTE,NT,2.04%,2.87%,2.366,5.377,4.796,17.743,0.123,0.321,01:49:24,02:08:27,00:19:03,51.259258,0.270653,TN15 0NT,6,AC,Heritage,,,,,,,,,,,,,,,,,,
KILLERTON,NT,4.71%,6.44%,5.408,12.426,11.084,41.007,0.284,0.717,01:50:45,02:09:19,00:18:34,50.791836,-3.453161,EX5 3LE,6,AC,Heritage,,,,,,,,,,,,,,,,,,
MONTACUTE,NT,2.19%,2.55%,1.017,2.086,1.861,6.883,0.048,0.126,01:54:37,02:12:40,00:18:02,50.950569,-2.715252,TA15 6XP,4,DC50,Heritage,,,,,,,,,,,,,,,,,,
MONTACUTE,NT,2.24%,3.32%,2.650,4.634,4.134,15.292,0.106,0.198,00:41:00,01:05:05,00:24:05,50.950703,-2.71517,TA15 6XP,4,AC,Heritage,,,,,,,,,,,,,,,,,,
MOTTISFONT,NT,1.33%,1.89%,1.560,3.363,3.000,11.097,0.077,0.193,01:52:17,02:15:01,00:22:44,51.040321,-1.533377,SO51 0LN,10,AC,Heritage,,,,,,,,,,,,,,,,,,
NYMANS,NT,2.41%,3.56%,2.946,6.375,5.686,21.037,0.146,0.408,01:49:46,02:05:34,00:15:48,51.05238,-0.199658,RH17 6EB,8,AC,Heritage,,,,,,,,,,,,,,,,,,
PENRHYN,NT,4.82%,6.70%,5.627,12.728,11.354,42.004,0.291,0.685,02:04:46,02:20:57,00:16:11,53.224476,-4.09199,LL57 4HT,4,AC,Heritage,,,,,,,,,,,,,,,,,,
PENTIREGLAZE,NT,4.27%,6.14%,4.978,11.285,10.067,37.242,0.258,0.556,02:06:50,02:39:15,00:32:25,50.581974,-4.905297,PL27 6QY,4,AC,Heritage,,,,,,,,,,,,,,,,,,
PLAS NEWYDD,NT,5.57%,7.86%,1.779,3.649,3.255,12.043,0.083,0.196,02:06:02,02:23:24,00:17:22,53.204369,-4.219902,LL61 6DQ,6,AC,Heritage,,,,,,,,,,,,,,,,,,
POLESDEN,NT,2.23%,3.62%,2.464,5.897,5.260,19.459,0.135,0.335,01:52:32,02:35:28,00:42:56,51.259571,-0.375104,RH5 6BD,10,AC,Heritage,,,,,,,,,,,,,,,,,,
PONT AR DAF,NT,2.35%,4.39%,2.723,6.207,5.537,20.483,0.142,0.364,02:36:46,02:53:36,00:16:50,51.869442,-3.473061,LD3 8NL,12,AC,Heritage,,,,,,,,,,,,,,,,,,
QUARRY BANK,NT,3.45%,5.82%,3.657,9.104,8.121,30.045,0.208,0.526,01:58:05,02:39:22,00:41:17,53.344902,-2.248062,SK9 4LA,6,AC,Heritage,,,,,,,,,,,,,,,,,,
SNOWSHILL,NT,2.65%,3.90%,3.044,7.004,6.247,23.112,0.160,0.485,01:41:28,01:55:53,00:14:25,52.005638,-1.862658,WR12 7JU,6,AC,Heritage,,,,,,,,,,,,,,,,,,
STOURHEAD,NT,1.96%,4.99%,19.652,28.873,25.755,95.281,0.660,0.833,00:39:18,01:10:29,00:31:11,51.104309,-2.316853,BA12 6QD,4,DC150,Hub+,,,,,,,,,,,,,,,,,,
STOURHEAD,NT,1.24%,5.61%,23.941,35.789,31.924,118.103,0.819,0.998,00:39:51,01:05:01,00:25:10,51.104343,-2.317063,BA12 6QD,4,DC300,Hub+,,,,,,,,,,,,,,,,,,
STOURHEAD,NT,4.46%,6.29%,4.605,10.626,9.478,35.066,0.243,0.542,02:00:09,02:31:05,00:30:57,51.104477,-2.316992,BA12 6QD,8,AC,Hub+,,,,,,,,,,,,,,,,,,
STOWE GDNS,NT,2.55%,3.72%,3.356,6.733,6.006,22.220,0.154,0.381,01:56:08,02:20:51,00:24:43,52.022629,-1.006804,MK18 5EQ,8,AC,Heritage,,,,,,,,,,,,,,,,,,
WALLINGTON,NT,1.33%,3.88%,1.836,3.510,3.131,11.581,0.080,0.461,01:27:16,02:01:18,00:34:03,55.153709,-1.959177,NE61 4AR,12,AC,Heritage,,,,,,,,,,,,,,,,,,
WIMPOLE,NT,2.63%,5.59%,3.057,6.947,6.197,22.925,0.159,0.486,02:15:58,02:45:32,00:29:34,52.137325,-0.041891,SG8 0BW,12,AC,Heritage,,,,,,,,,,,,,,,,,,
ST GEORGE'S,St George's,2.27%,3.44%,26.021,41.258,36.803,136.153,0.944,1.214,00:35:51,00:40:19,00:04:28,52.635681,-1.121547,LE1 1SG,4,DC150,Hub+,,,,,,,,,,,,,,,,,,
ST GEORGE'S,St George's,1.62%,4.83%,75.948,115.383,102.922,380.765,2.639,3.399,00:36:36,00:40:44,00:04:09,52.635902,-1.121311,LE1 1SG,8,DC300,Hub+,,,,,,,,,,,,,,,,,,
BILLESLEY,Bespoke,4.46%,13.18%,6.358,13.007,11.603,42.924,0.298,0.497,02:36:55,07:07:07,04:30:12,52.208698,-1.785909,B49 6NE,4,AC,Hotel,,,,,,,,,,,,,,,,,,
CALEDONIAN,Bespoke,3.33%,6.66%,4.290,8.177,7.294,26.985,0.187,0.432,02:03:44,03:37:02,01:33:18,57.897388,-5.161871,IV26 2UG,6,AC,Hotel,,,,,,,,,,,,,,,,,,
J27,J27,5.88%,14.41%,7.316,15.536,13.858,51.267,0.355,0.633,03:28:25,05:34:42,02:06:17,53.743202,-1.64498,WF17 9AD,6,AC,Hub+,,,,,,,,,,,,,,,,,,
J27,J27,0.93%,2.51%,22.749,33.455,29.842,110.401,0.765,1.021,00:30:45,00:35:31,00:04:46,53.743404,-1.644705,WF17 9AD,10,DC300,Hub+,,,,,,,,,,,,,,,,,,
